<?xml version="1.0" encoding="UTF-8" standalone="yes"?>
<AddressBook>
    <persons>
        <name>Sams Club</name>
        <address>15 Mill Creek Circle, Pooler, GA</address>
        <latitude>32.13932</latitude>
        <longitude>-81.24487</longitude>
        <tagged>Gas</tagged>
    </persons>
    <persons>
        <name>Grandfather Campground</name>
        <address>125 Riverside Dr, Banner Elk, NC</address>
        <latitude>36.1440102</latitude>
        <longitude>-81.7976193</longitude>
    </persons>
    <persons>
        <name>Walmart</name>
        <address>2350 So Pleasant Valley Rd, Winchester, VA 22601</address>
        <latitude>39.1574</latitude>
        <longitude>-78.17323</longitude>
    </persons>
    <persons>
        <name>Megan Mudge</name>
        <address>10654 Breezewood Dr, Woodstock, MD 21163-1317</address>
        <latitude>39.32632</latitude>
        <longitude>-76.88196</longitude>
    </persons>
    <persons>
        <name>Walmart</name>
        <address>1365 Boston Post Road, Milford, CT</address>
        <latitude>41.23982</latitude>
        <longitude>-73.0345233</longitude>
    </persons>
    <persons>
        <name>Sippewissett Campground</name>
        <address>836 Palmer Avenue, Falmouth, MA</address>
        <latitude>41.57739</latitude>
        <longitude>-70.62898</longitude>
    </persons>
    <persons>
        <name>Cabelas</name>
        <address>100 Cabelas Blvd, Scarborough, ME</address>
        <latitude>43.60265</latitude>
        <longitude>-70.37061</longitude>
    </persons>
    <persons>
        <name>Home Maine</name>
        <address>7 Manor Lane, Sullivan, ME 40664</address>
        <latitude>44.5228246</latitude>
        <longitude>-68.2088976</longitude>
    </persons>
    <persons>
        <name>Home Florida</name>
        <address>3533 Carambola Cir, Melbourne, FL</address>
        <latitude>28.23469</latitude>
        <longitude>-80.7532</longitude>
    </persons>
    <persons>
        <name>Walmart</name>
        <address>2110 Bells Hwy, Walterboro, SC 29488</address>
        <latitude>32.9324299</latitude>
        <longitude>-80.6945099</longitude>
        <tagged>Gas</tagged>
    </persons>
    <persons>
        <name>Shell Point</name>
        <address>15101 Shell Point Blvd, Fort Myers, FL 33908</address>
        <latitude>26.5173122</latitude>
        <longitude>-81.9967957</longitude>
    </persons>
    <persons>
        <name>Maple Lane Farms</name>
        <address>224 Upper-Charleston Rd, Charleston, ME 04422</address>
        <latitude>45.08825</latitude>
        <longitude>-69.01912</longitude>
    </persons>
    <persons>
        <name>Walmart</name>
        <address>171 Burgess Road Harrisonburg, VA 22801</address>
        <latitude>38.4328798</latitude>
        <longitude>-78.849603</longitude>
    </persons>
    <persons>
        <name>Walmart</name>
        <address>461 W Reservoir Rd, Woodstock, VA 22664</address>
        <latitude>38.8723699</latitude>
        <longitude>-78.53022</longitude>
    </persons>
    <persons>
        <name>Mobile</name>
        <address>360 MacArthur Blvd, Buzzards Bay, MA</address>
        <latitude>41.7171837</latitude>
        <longitude>-70.5839532</longitude>
        <tagged>Gas</tagged>
    </persons>
    <persons>
        <name>Exxon</name>
        <address>446 W Reservoir Rd, Woodstock, VA 22664</address>
        <latitude>38.87228</latitude>
        <longitude>-78.52915</longitude>
        <tagged>Gas</tagged>
    </persons>
    <persons>
        <name>Riverwalk</name>
        <address>2118, 201 SW St Lucie Ave, Stuart, FL 34994</address>
        <latitude>27.20005</latitude>
        <longitude>-80.2544099</longitude>
    </persons>
    <persons>
        <name>Norrie SP</name>
        <address>9 Old Post Road, Staatsburg, NY 12580</address>
        <latitude>41.84363</latitude>
        <longitude>-73.92999</longitude>
    </persons>
    <persons>
        <name>Presnick</name>
        <address>96 Willard Street, Cocoa, FL</address>
        <latitude>28.35648</latitude>
        <longitude>-80.72467</longitude>
    </persons>
    <persons>
        <name>Walmart</name>
        <address>1801 US-421, Wilkesboro, NC 28697</address>
        <latitude>36.15023</latitude>
        <longitude>-81.19421</longitude>
    </persons>
    <persons>
        <name>Titusville Camping</name>
        <address>7275 South US Highway 1 Titusville, FL 32780</address>
        <latitude>28.5042401</latitude>
        <longitude>-80.7837401</longitude>
    </persons>
    <persons>
        <name>Bakery</name>
        <address>Yalaha Bakery, 8210 FL-48, Yalaha, FL 34797</address>
        <latitude>28.73937</latitude>
        <longitude>-81.8181</longitude>
    </persons>
    <persons>
        <name>Pat2</name>
        <address>1684 Atlantic Beach Dr, Atlantic Beach, FL</address>
        <latitude>30.3438848</latitude>
        <longitude>-81.4081825</longitude>
    </persons>
    <persons>
        <name>Santee SP</name>
        <address>251 State Park Rd, Santee, SC 29142</address>
        <latitude>33.5520799</latitude>
        <longitude>-80.50297</longitude>
    </persons>
    <persons>
        <name>Walmart</name>
        <address>10001 Southpoint Parkway Fredericksburg, VA 22407</address>
        <latitude>38.23681</latitude>
        <longitude>-77.5068299</longitude>
    </persons>
    <persons>
        <name>Flying J</name>
        <address>23826 Rogers Clark Blvd, Ruther Glen, VA 22546</address>
        <latitude>37.9390189</latitude>
        <longitude>-77.4655422</longitude>
        <tagged>Fuel</tagged>
    </persons>
    <tags>Gas</tags>
    <tags>Fuel</tags>
</AddressBook>
