<?xml version="1.0" encoding="UTF-8" standalone="yes"?>
<AddressBook>
    <persons>
        <name>17281 Brenfield Ln</name>
        <address></address>
        <latitude>26.72212882898748</latitude>
        <longitude>-81.67393430136144</longitude>
    </persons>
    <persons>
        <name>3560 Kendal Crossing Ter</name>
        <address></address>
        <latitude>37.54811089485884</latitude>
        <longitude>-77.64058009721339</longitude>
    </persons>
    <persons>
        <name>47 Hogan Rd</name>
        <address></address>
        <latitude>44.81567566283047</latitude>
        <longitude>-68.73804347589612</longitude>
    </persons>
    <persons>
        <name>Blvd N</name>
        <address></address>
        <latitude>41.756621645763516</latitude>
        <longitude>-72.6208134368062</longitude>
    </persons>
    <persons>
        <name>Bob Sikes</name>
        <address></address>
        <latitude>30.726871490478516</latitude>
        <longitude>-86.49709939956665</longitude>
    </persons>
    <persons>
        <name>Cabelas</name>
        <address>100 Cabelas Blvd, Scarborough, ME</address>
        <latitude>43.60265</latitude>
        <longitude>-70.37061</longitude>
    </persons>
    <persons>
        <name>Camping Transit</name>
        <address></address>
        <latitude>46.812269976362586</latitude>
        <longitude>-71.05076998472214</longitude>
    </persons>
    <persons>
        <name>Exxon</name>
        <address>446 W Reservoir Rd, Woodstock, VA 22664</address>
        <latitude>38.87228</latitude>
        <longitude>-78.52915</longitude>
        <tagged>Gas</tagged>
    </persons>
    <persons>
        <name>Flying J</name>
        <address>23826 Rogers Clark Blvd, Ruther Glen, VA 22546</address>
        <latitude>37.9390189</latitude>
        <longitude>-77.4655422</longitude>
        <tagged>Fuel</tagged>
    </persons>
    <persons>
        <name>Fort Clinch State Park</name>
        <address></address>
        <latitude>30.670158863067627</latitude>
        <longitude>-81.43465518951416</longitude>
    </persons>
    <persons>
        <name>Grandfather Campground</name>
        <address>125 Riverside Dr, Banner Elk, NC</address>
        <latitude>36.1440102</latitude>
        <longitude>-81.7976193</longitude>
    </persons>
    <persons>
        <name>Greenville</name>
        <address></address>
        <latitude>33.35326910018921</latitude>
        <longitude>-91.04144811630249</longitude>
    </persons>
    <persons>
        <name>Greenville Weston High School</name>
        <address></address>
        <latitude>33.39444637298584</latitude>
        <longitude>-91.04702711105347</longitude>
    </persons>
    <persons>
        <name>Home Florida</name>
        <address>3533 Carambola Cir, Melbourne, FL</address>
        <latitude>28.23469</latitude>
        <longitude>-80.7532</longitude>
    </persons>
    <persons>
        <name>Home Maine</name>
        <address>7 Manor Lane, Sullivan, ME 40664</address>
        <latitude>44.5228246</latitude>
        <longitude>-68.2088976</longitude>
    </persons>
    <persons>
        <name>Maple Lane Farms</name>
        <address>224 Upper-Charleston Rd, Charleston, ME 04422</address>
        <latitude>45.08825</latitude>
        <longitude>-69.01912</longitude>
    </persons>
    <persons>
        <name>Megan Mudge</name>
        <address>10654 Breezewood Dr, Woodstock, MD 21163-1317</address>
        <latitude>39.32632</latitude>
        <longitude>-76.88196</longitude>
    </persons>
    <persons>
        <name>Mobile</name>
        <address>360 MacArthur Blvd, Buzzards Bay, MA</address>
        <latitude>41.7171837</latitude>
        <longitude>-70.5839532</longitude>
        <tagged>Gas</tagged>
    </persons>
    <persons>
        <name>Norrie SP</name>
        <address>9 Old Post Road, Staatsburg, NY 12580</address>
        <latitude>41.84363</latitude>
        <longitude>-73.92999</longitude>
    </persons>
    <persons>
        <name>Pat2</name>
        <address>1684 Atlantic Beach Dr, Atlantic Beach, FL</address>
        <latitude>30.3438848</latitude>
        <longitude>-81.4081825</longitude>
    </persons>
    <persons>
        <name>Pat2 Club</name>
        <address>1601 Atlantic Beach Dr, Atlantic Beach, FL 32233</address>
        <latitude>30.34135</latitude>
        <longitude>-81.40743</longitude>
    </persons>
    <persons>
        <name>Portland International Jetport</name>
        <address></address>
        <latitude>43.647308349609375</latitude>
        <longitude>-70.31044006347656</longitude>
    </persons>
    <persons>
        <name>Presnick</name>
        <address>96 Willard Street, Cocoa, FL</address>
        <latitude>28.35648</latitude>
        <longitude>-80.72467</longitude>
    </persons>
    <persons>
        <name>Sams Club</name>
        <address>15 Mill Creek Circle, Pooler, GA</address>
        <latitude>32.13932</latitude>
        <longitude>-81.24487</longitude>
        <tagged>Gas</tagged>
    </persons>
    <persons>
        <name>Santee SP</name>
        <address>251 State Park Rd, Santee, SC 29142</address>
        <latitude>33.5520799</latitude>
        <longitude>-80.50297</longitude>
    </persons>
    <persons>
        <name>Schodack Island SP</name>
        <address>1 Schodack Island Way, Schodack, NY</address>
        <latitude>42.5049</latitude>
        <longitude>-73.77184</longitude>
    </persons>
    <persons>
        <name>Schodack State Park</name>
        <address>516 Schodack Landing Rd, Shodack Landing, NY</address>
        <latitude>42.4775773</latitude>
        <longitude>-73.7573471</longitude>
    </persons>
    <persons>
        <name>Shell Point</name>
        <address>15101 Shell Point Blvd, Fort Myers, FL 33908</address>
        <latitude>26.5173122</latitude>
        <longitude>-81.9967957</longitude>
    </persons>
    <persons>
        <name>Sippewissett Campground</name>
        <address>836 Palmer Avenue, Falmouth, MA</address>
        <latitude>41.57739</latitude>
        <longitude>-70.62898</longitude>
    </persons>
    <persons>
        <name>Sullivan Twn</name>
        <address></address>
        <latitude>44.52012062072754</latitude>
        <longitude>-68.19546461105347</longitude>
    </persons>
    <persons>
        <name>Titusville Camping</name>
        <address>7275 South US Highway 1, Titusville, FL 32780</address>
        <latitude>28.5042401</latitude>
        <longitude>-80.7837401</longitude>
    </persons>
    <persons>
        <name>Walmart</name>
        <address>2350 So Pleasant Valley Rd, Winchester, VA 22601</address>
        <latitude>39.1574</latitude>
        <longitude>-78.17323</longitude>
    </persons>
    <persons>
        <name>Walmart</name>
        <address>1365 Boston Post Road, Milford, CT</address>
        <latitude>41.23982</latitude>
        <longitude>-73.0345233</longitude>
    </persons>
    <persons>
        <name>Walmart</name>
        <address>2110 Bells Hwy, Walterboro, SC 29488</address>
        <latitude>32.9324299</latitude>
        <longitude>-80.6945099</longitude>
        <tagged>Gas</tagged>
    </persons>
    <persons>
        <name>Walmart</name>
        <address>171 Burgess Road, Harrisonburg, VA 22801</address>
        <latitude>38.4328798</latitude>
        <longitude>-78.849603</longitude>
    </persons>
    <persons>
        <name>Walmart</name>
        <address>461 W Reservoir Rd, Woodstock, VA 22664</address>
        <latitude>38.8723699</latitude>
        <longitude>-78.53022</longitude>
    </persons>
    <persons>
        <name>Walmart</name>
        <address>1801 US-421, Wilkesboro, NC 28697</address>
        <latitude>36.15023</latitude>
        <longitude>-81.19421</longitude>
    </persons>
    <persons>
        <name>Walmart</name>
        <address>10001 Southpoint Parkway, Fredericksburg, VA 22407</address>
        <latitude>38.23681</latitude>
        <longitude>-77.5068299</longitude>
    </persons>
    <persons>
        <name>Walmart Seabrook</name>
        <address></address>
        <latitude>42.89538860321045</latitude>
        <longitude>-70.87100028991699</longitude>
    </persons>
    <tags>Gas</tags>
    <tags>Fuel</tags>
</AddressBook>
